{ "data": [{ "id": 31, "name": "Black Swan Bed & Breakfast", "phone": " +266 22317700", "email": "boeti@blackswan.co.ls", "cell": " 26658811981.0", "address": "28 Manong Road, Hillsview", "website": "www.blackswan.co.ls", "book_url": null, "latitude": -29.324992064, "longitude": 27.4786991515, "image": "placeholder-2.png", "icon": "b-b-marker.png", "hasEmail": true, "hasPhone": true, "hasCell": true, "hasWebsite": true, "hasBookUrl": false, "district": { "data": { "id": 5, "name": "Maseru" } } }, { "id": 32, "name": "Boikhutsong Bed & Breakfast", "phone": "+266 28328871", "email": "gmothepu@gmail.com", "cell": " +266 62858871", "address": "Tjobolo Street, Hillsview", "website": null, "book_url": null, "latitude": -29.327506217, "longitude": 27.4817902021, "image": "placeholder-2.png", "icon": "b-b-marker.png", "hasEmail": true, "hasPhone": true, "hasCell": true, "hasWebsite": false, "hasBookUrl": false, "district": { "data": { "id": 5, "name": "Maseru" } } }, { "id": 33, "name": "Hillsview Bed & Breakfast", "phone": " +266 22311320", "email": null, "cell": null, "address": "Hillsview", "website": null, "book_url": null, "latitude": -29.3244752854, "longitude": 27.479636854, "image": "placeholder-2.png", "icon": "b-b-marker.png", "hasEmail": false, "hasPhone": true, "hasCell": false, "hasWebsite": false, "hasBookUrl": false, "district": { "data": { "id": 5, "name": "Maseru" } } }, { "id": 34, "name": "Ifo Bed & Breakfast", "phone": " +266 22327630", "email": "mampaila@yahoo.com", "cell": " +266 58997494", "address": "58B Cathedral Area, Maseru", "website": "www.citylodger.com", "book_url": null, "latitude": -29.3224003377, "longitude": 27.4964648603, "image": "placeholder-2.png", "icon": "b-b-marker.png", "hasEmail": true, "hasPhone": true, "hasCell": true, "hasWebsite": true, "hasBookUrl": false, "district": { "data": { "id": 5, "name": "Maseru" } } }, { "id": 35, "name": "Lindy's Bed & Breakfast", "phone": null, "email": "info@lidysbnb.co.ls", "cell": " +266 59111732", "address": "Ha Matela, Morija", "website": "www.lindysbnb.co.ls", "book_url": null, "latitude": -29.6316657297, "longitude": 27.5139653574, "image": "placeholder-2.png", "icon": "b-b-marker.png", "hasEmail": true, "hasPhone": false, "hasCell": true, "hasWebsite": true, "hasBookUrl": false, "district": { "data": { "id": 5, "name": "Maseru" } } }, { "id": 36, "name": "Phokeng Gardens", "phone": " +266 22311925", "email": "phokenggardensbed&breakfast@yahoo.com", "cell": " +266 59775540", "address": "15 Linakaneng Street, Maseru East", "website": "www.phokeng.co.ls", "book_url": null, "latitude": -29.3068805903, "longitude": 27.5073782504, "image": "placeholder-2.png", "icon": "b-b-marker.png", "hasEmail": true, "hasPhone": true, "hasCell": true, "hasWebsite": true, "hasBookUrl": false, "district": { "data": { "id": 5, "name": "Maseru" } } }, { "id": 37, "name": "Road stay Guest House", "phone": "+266 28333046", "email": "roadstay@gmail.com", "cell": "+266 C7151409432", "address": "Naleli Sekamaneng", "website": "www.roadstay.co.za", "book_url": null, "latitude": -29.2852027751, "longitude": 27.5473920796, "image": "placeholder-2.png", "icon": "b-b-marker.png", "hasEmail": true, "hasPhone": true, "hasCell": true, "hasWebsite": true, "hasBookUrl": false, "district": { "data": { "id": 5, "name": "Maseru" } } }, { "id": 38, "name": "Gracas a Deus B&B", "phone": " +266 28318777\/ 22327559", "email": "info.gracasadeus@gmail.com", "cell": null, "address": "Ha Hoohlo", "website": null, "book_url": null, "latitude": -29.303022325, "longitude": 27.4666932248, "image": "placeholder-2.png", "icon": "b-b-marker.png", "hasEmail": true, "hasPhone": true, "hasCell": false, "hasWebsite": false, "hasBookUrl": false, "district": { "data": { "id": 5, "name": "Maseru" } } }] }